[
    {
        "id": 11754,
        "name": "Bālā Aḩmad Kolā",
        "state": "",
        "country": "IR",
        "coord": {
            "lon": 52.667271,
            "lat": 36.649059
        }
    },
    {
        "id": 29033,
        "name": "Rokan Sarā",
        "state": "",
        "country": "IR",
        "coord": {
            "lon": 49.608101,
            "lat": 37.32085
        }
    },
    {
        "id": 30735,
        "name": "Ash Shuqayrah",
        "state": "",
        "country": "YE",
        "coord": {
            "lon": 43.786362,
            "lat": 13.13452
        }
    },
    {
        "id": 34703,
        "name": "Suq Sirwah",
        "state": "",
        "country": "YE",
        "coord": {
            "lon": 45.01667,
            "lat": 15.45417
        }
    },
    {
        "id": 35056,
        "name": "Tabrīz Jānī",
        "state": "",
        "country": "IR",
        "coord": {
            "lon": 46.23333,
            "lat": 38.133331
        }
    },
    {
        "id": 49593,
        "name": "Yeed",
        "state": "",
        "country": "SO",
        "coord": {
            "lon": 43.033329,
            "lat": 4.55
        }
    },
    {
        "id": 51967,
        "name": "Gobolka Shabeellaha Dhexe",
        "state": "",
        "country": "SO",
        "coord": {
            "lon": 46.0,
            "lat": 3.0
        }
    },
    {
        "id": 54225,
        "name": "Marka",
        "state": "",
        "country": "SO",
        "coord": {
            "lon": 44.77166,
            "lat": 1.71594
        }
    },
    {
        "id": 56399,
        "name": "Jamaame",
        "state": "",
        "country": "SO",
        "coord": {
            "lon": 42.744968,
            "lat": 0.06968
        }
    },
    {
        "id": 59611,
        "name": "Gaalkacyo",
        "state": "",
        "country": "SO",
        "coord": {
            "lon": 47.430828,
            "lat": 6.76972
        }
    },
    {
        "id": 62788,
        "name": "Ceeldheer",
        "state": "",
        "country": "SO",
        "coord": {
            "lon": 47.180641,
            "lat": 3.84878
        }
    },
    {
        "id": 64013,
        "name": "Bosaso",
        "state": "",
        "country": "SO",
        "coord": {
            "lon": 49.18158,
            "lat": 11.28421
        }
    },
    {
        "id": 64833,
        "name": "Gobolka Banaadir",
        "state": "",
        "country": "SO",
        "coord": {
            "lon": 45.400002,
            "lat": 2.11667
        }
    },
    {
        "id": 69482,
        "name": "Az Zahir",
        "state": "",
        "country": "YE",
        "coord": {
            "lon": 45.48333,
            "lat": 13.96667
        }
    },
    {
        "id": 69769,
        "name": "Usaylan",
        "state": "",
        "country": "YE",
        "coord": {
            "lon": 45.82832,
            "lat": 15.03201
        }
    },
    {
        "id": 70357,
        "name": "Abs",
        "state": "",
        "country": "YE",
        "coord": {
            "lon": 43.197239,
            "lat": 16.002951
        }
    },
    {
        "id": 71005,
        "name": "Sayhut",
        "state": "",
        "country": "YE",
        "coord": {
            "lon": 51.24556,
            "lat": 15.21056
        }
    },
    {
        "id": 71491,
        "name": "Rada",
        "state": "",
        "country": "YE",
        "coord": {
            "lon": 44.83709,
            "lat": 14.4151
        }
    },
    {
        "id": 72430,
        "name": "Al Musaymir",
        "state": "",
        "country": "YE",
        "coord": {
            "lon": 44.61528,
            "lat": 13.44389
        }
    },
    {
        "id": 72855,
        "name": "Al Jawl",
        "state": "",
        "country": "YE",
        "coord": {
            "lon": 48.280659,
            "lat": 14.45625
        }
    },
    {
        "id": 73409,
        "name": "Mabar",
        "state": "",
        "country": "YE",
        "coord": {
            "lon": 44.293541,
            "lat": 14.79395
        }
    },
    {
        "id": 73861,
        "name": "Khamir",
        "state": "",
        "country": "YE",
        "coord": {
            "lon": 43.953621,
            "lat": 15.98792
        }
    },
    {
        "id": 74499,
        "name": "As Salasil",
        "state": "",
        "country": "YE",
        "coord": {
            "lon": 48.831532,
            "lat": 16.479589
        }
    },
    {
        "id": 75337,
        "name": "Hajjah",
        "state": "",
        "country": "YE",
        "coord": {
            "lon": 43.60582,
            "lat": 15.69425
        }
    },
    {
        "id": 76125,
        "name": "Dhi Naim",
        "state": "",
        "country": "YE",
        "coord": {
            "lon": 45.448071,
            "lat": 14.10574
        }
    },
    {
        "id": 76927,
        "name": "Bayt Adhaqah",
        "state": "",
        "country": "YE",
        "coord": {
            "lon": 43.702278,
            "lat": 15.61576
        }
    },
    {
        "id": 77515,
        "name": "Az Zaydiyah",
        "state": "",
        "country": "YE",
        "coord": {
            "lon": 43.008121,
            "lat": 15.32851
        }
    },
    {
        "id": 77800,
        "name": "As Sawmaah",
        "state": "",
        "country": "YE",
        "coord": {
            "lon": 45.801022,
            "lat": 14.08505
        }
    },
    {
        "id": 77985,
        "name": "Ash Shaghadirah",
        "state": "",
        "country": "YE",
        "coord": {
            "lon": 43.520561,
            "lat": 15.62
        }
    },
    {
        "id": 78566,
        "name": "Al Qurh",
        "state": "",
        "country": "YE",
        "coord": {
            "lon": 51.48333,
            "lat": 16.73333
        }
    },
    {
        "id": 78823,
        "name": "Al Mighlaf",
        "state": "",
        "country": "YE",
        "coord": {
            "lon": 43.18914,
            "lat": 15.2871
        }
    },
    {
        "id": 79050,
        "name": "Al Luhayyah",
        "state": "",
        "country": "YE",
        "coord": {
            "lon": 42.690929,
            "lat": 15.70309
        }
    },
    {
        "id": 79455,
        "name": "Al Hazm",
        "state": "",
        "country": "YE",
        "coord": {
            "lon": 44.77692,
            "lat": 16.164061
        }
    },
    {
        "id": 79845,
        "name": "Al Batinah",
        "state": "",
        "country": "YE",
        "coord": {
            "lon": 48.433331,
            "lat": 15.48333
        }
    },
    {
        "id": 80412,
        "name": "Muḩāfaz̧at ‘Adan",
        "state": "",
        "country": "YE",
        "coord": {
            "lon": 44.916672,
            "lat": 12.83333
        }
    },
    {
        "id": 88380,
        "name": "Az Zuwaytīnah",
        "state": "",
        "country": "LY",
        "coord": {
            "lon": 20.12022,
            "lat": 30.9522
        }
    },
    {
        "id": 88930,
        "name": "Al Kufrah",
        "state": "",
        "country": "LY",
        "coord": {
            "lon": 23.269621,
            "lat": 24.16667
        }
    },
    {
        "id": 89977,
        "name": "Ūlwur",
        "state": "",
        "country": "IQ",
        "coord": {
            "lon": 45.749722,
            "lat": 35.115002
        }
    },
    {
        "id": 92002,
        "name": "Ṟuwandiz",
        "state": "",
        "country": "IQ",
        "coord": {
            "lon": 44.531109,
            "lat": 36.61631
        }
    },
    {
        "id": 93709,
        "name": "Mandalī",
        "state": "",
        "country": "IQ",
        "coord": {
            "lon": 45.5541,
            "lat": 33.749859
        }
    },
    {
        "id": 94931,
        "name": "Kānī Kawah al Qadīmah",
        "state": "",
        "country": "IQ",
        "coord": {
            "lon": 45.743889,
            "lat": 35.302502
        }
    },
    {
        "id": 96269,
        "name": "‘Arab Ḩasan as Suhayl",
        "state": "",
        "country": "IQ",
        "coord": {
            "lon": 44.15752,
            "lat": 33.32304
        }
    },
    {
        "id": 97990,
        "name": "Baqubah",
        "state": "",
        "country": "IQ",
        "coord": {
            "lon": 44.655449,
            "lat": 33.748459
        }
    },
    {
        "id": 98463,
        "name": "As Sulaymānīyah",
        "state": "",
        "country": "IQ",
        "coord": {
            "lon": 45.437489,
            "lat": 35.561131
        }
    },
    {
        "id": 98756,
        "name": "Qaryat al ‘Arbīd",
        "state": "",
        "country": "IQ",
        "coord": {
            "lon": 43.08062,
            "lat": 36.198238
        }
    },
    {
        "id": 99062,
        "name": "Al Miqdādīyah",
        "state": "",
        "country": "IQ",
        "coord": {
            "lon": 44.936939,
            "lat": 33.978611
        }
    },
    {
        "id": 99308,
        "name": "‘Alī al Aḩmad",
        "state": "",
        "country": "IQ",
        "coord": {
            "lon": 44.049999,
            "lat": 33.066666
        }
    },
    {
        "id": 99536,
        "name": "Al Barjisīyah",
        "state": "",
        "country": "IQ",
        "coord": {
            "lon": 47.566669,
            "lat": 30.35
        }
    },
    {
        "id": 100425,
        "name": "Yanbu",
        "state": "",
        "country": "SA",
        "coord": {
            "lon": 38.06374,
            "lat": 24.089121
        }
    },
    {
        "id": 101628,
        "name": "Tabuk",
        "state": "",
        "country": "SA",
        "coord": {
            "lon": 36.583328,
            "lat": 28.383329
        }
    },
    {
        "id": 102527,
        "name": "Sakakah",
        "state": "",
        "country": "SA",
        "coord": {
            "lon": 40.206409,
            "lat": 29.96974
        }
    },
    {
        "id": 103630,
        "name": "Najrān",
        "state": "",
        "country": "SA",
        "coord": {
            "lon": 44.127659,
            "lat": 17.492399
        }
    },
    {
        "id": 105072,
        "name": "Khamis Mushait",
        "state": "",
        "country": "SA",
        "coord": {
            "lon": 42.729172,
            "lat": 18.306391
        }
    },
    {
        "id": 106909,
        "name": "Duba",
        "state": "",
        "country": "SA",
        "coord": {
            "lon": 35.69014,
            "lat": 27.351339
        }
    },
    {
        "id": 108048,
        "name": "As Sulayyil",
        "state": "",
        "country": "SA",
        "coord": {
            "lon": 45.577919,
            "lat": 20.46067
        }
    },
    {
        "id": 108411,
        "name": "Minţaqat ar Riyāḑ",
        "state": "",
        "country": "SA",
        "coord": {
            "lon": 45.333328,
            "lat": 23.33333
        }
    },
    {
        "id": 108947,
        "name": "Al Quraynah",
        "state": "",
        "country": "SA",
        "coord": {
            "lon": 46.421291,
            "lat": 24.46747
        }
    },
    {
        "id": 109323,
        "name": "Khobar",
        "state": "",
        "country": "SA",
        "coord": {
            "lon": 50.208328,
            "lat": 26.27944
        }
    },
    {
        "id": 109579,
        "name": "Minţaqat al Ḩudūd ash Shamālīyah",
        "state": "",
        "country": "SA",
        "coord": {
            "lon": 42.666672,
            "lat": 30.0
        }
    },
    {
        "id": 110314,
        "name": "Ad Dilam",
        "state": "",
        "country": "SA",
        "coord": {
            "lon": 47.162659,
            "lat": 23.991461
        }
    },
    {
        "id": 111452,
        "name": "Ostān-e Zanjān",
        "state": "",
        "country": "IR",
        "coord": {
            "lon": 48.333328,
            "lat": 36.5
        }
    },
    {
        "id": 113491,
        "name": "Tākestān",
        "state": "",
        "country": "IR",
        "coord": {
            "lon": 49.6959,
            "lat": 36.069599
        }
    },
    {
        "id": 114593,
        "name": "Shūsh",
        "state": "",
        "country": "IR",
        "coord": {
            "lon": 48.243599,
            "lat": 32.194199
        }
    },
    {
        "id": 116996,
        "name": "Sari",
        "state": "",
        "country": "IR",
        "coord": {
            "lon": 53.060089,
            "lat": 36.56332
        }
    },
    {
        "id": 118704,
        "name": "Rāvar",
        "state": "",
        "country": "IR",
        "coord": {
            "lon": 56.80545,
            "lat": 31.265619
        }
    },
    {
        "id": 119505,
        "name": "Qazvin",
        "state": "",
        "country": "IR",
        "coord": {
            "lon": 50.004902,
            "lat": 36.279701
        }
    },
    {
        "id": 121795,
        "name": "Oshnavīyeh",
        "state": "",
        "country": "IR",
        "coord": {
            "lon": 45.098301,
            "lat": 37.0397
        }
    },
    {
        "id": 122438,
        "name": "Naz̧arābād",
        "state": "",
        "country": "IR",
        "coord": {
            "lon": 50.607498,
            "lat": 35.952099
        }
    },
    {
        "id": 124291,
        "name": "Mehrān",
        "state": "",
        "country": "IR",
        "coord": {
            "lon": 46.1646,
            "lat": 33.1222
        }
    },
    {
        "id": 125446,
        "name": "Mahābād",
        "state": "",
        "country": "IR",
        "coord": {
            "lon": 45.722198,
            "lat": 36.7631
        }
    },
    {
        "id": 127082,
        "name": "Khuzestan",
        "state": "",
        "country": "IR",
        "coord": {
            "lon": 49.0,
            "lat": 31.5
        }
    },
    {
        "id": 128231,
        "name": "Kerman",
        "state": "",
        "country": "IR",
        "coord": {
            "lon": 57.25,
            "lat": 29.75
        }
    },
    {
        "id": 129512,
        "name": "Kalāleh",
        "state": "",
        "country": "IR",
        "coord": {
            "lon": 55.491638,
            "lat": 37.380711
        }
    },
    {
        "id": 131962,
        "name": "Harsīn",
        "state": "",
        "country": "IR",
        "coord": {
            "lon": 47.586102,
            "lat": 34.272099
        }
    },
    {
        "id": 133533,
        "name": "Gerīzeh",
        "state": "",
        "country": "IR",
        "coord": {
            "lon": 47.018501,
            "lat": 35.257999
        }
    },
    {
        "id": 134766,
        "name": "Fars",
        "state": "",
        "country": "IR",
        "coord": {
            "lon": 53.0,
            "lat": 29.0
        }
    },
    {
        "id": 137268,
        "name": "Sūsangerd",
        "state": "",
        "country": "IR",
        "coord": {
            "lon": 48.183102,
            "lat": 31.560801
        }
    },
    {
        "id": 139817,
        "name": "Bushehr",
        "state": "",
        "country": "IR",
        "coord": {
            "lon": 50.838501,
            "lat": 28.968399
        }
    },
    {
        "id": 140889,
        "name": "Bonāb",
        "state": "",
        "country": "IR",
        "coord": {
            "lon": 46.056099,
            "lat": 37.340401
        }
    },
    {
        "id": 142000,
        "name": "Bahār",
        "state": "",
        "country": "IR",
        "coord": {
            "lon": 48.441399,
            "lat": 34.9072
        }
    },
    {
        "id": 142872,
        "name": "Asadābād",
        "state": "",
        "country": "IR",
        "coord": {
            "lon": 48.11853,
            "lat": 34.78241
        }
    },
    {
        "id": 144410,
        "name": "Akbarābād",
        "state": "",
        "country": "IR",
        "coord": {
            "lon": 52.779301,
            "lat": 29.246401
        }
    },
    {
        "id": 145233,
        "name": "Ābdānān",
        "state": "",
        "country": "IR",
        "coord": {
            "lon": 47.4198,
            "lat": 32.992599
        }
    },
    {
        "id": 145971,
        "name": "Xylotymbou",
        "state": "",
        "country": "GB",
        "coord": {
            "lon": 33.74057,
            "lat": 35.0191
        }
    },
    {
        "id": 146107,
        "name": "Pyrgos",
        "state": "",
        "country": "CY",
        "coord": {
            "lon": 33.183331,
            "lat": 34.741669
        }
    },
    {
        "id": 146189,
        "name": "Pérgamos",
        "state": "",
        "country": "GB",
        "coord": {
            "lon": 33.708328,
            "lat": 35.041672
        }
    },
    {
        "id": 146245,
        "name": "Páchna",
        "state": "",
        "country": "CY",
        "coord": {
            "lon": 32.79583,
            "lat": 34.779171
        }
    },
    {
        "id": 146362,
        "name": "Lýmpia",
        "state": "",
        "country": "CY",
        "coord": {
            "lon": 33.462502,
            "lat": 35.0
        }
    },
    {
        "id": 146403,
        "name": "Lápithos",
        "state": "",
        "country": "CY",
        "coord": {
            "lon": 33.179169,
            "lat": 35.337502
        }
    },
    {
        "id": 146472,
        "name": "Kissonerga",
        "state": "",
        "country": "CY",
        "coord": {
            "lon": 32.400002,
            "lat": 34.825001
        }
    },
    {
        "id": 146654,
        "name": "Dhromolaxia",
        "state": "",
        "country": "CY",
        "coord": {
            "lon": 33.586842,
            "lat": 34.875511
        }
    },
    {
        "id": 146770,
        "name": "Astromerítis",
        "state": "",
        "country": "CY",
        "coord": {
            "lon": 33.037498,
            "lat": 35.14167
        }
    },
    {
        "id": 146862,
        "name": "Prishibinskoye",
        "state": "",
        "country": "AZ",
        "coord": {
            "lon": 48.593609,
            "lat": 39.119579
        }
    },
    {
        "id": 147192,
        "name": "Shekyarabad",
        "state": "",
        "country": "AZ",
        "coord": {
            "lon": 45.43676,
            "lat": 39.19228
        }
    },
    {
        "id": 147364,
        "name": "Orjonikidze",
        "state": "",
        "country": "AZ",
        "coord": {
            "lon": 47.690762,
            "lat": 39.632221
        }
    },
    {
        "id": 147611,
        "name": "Lerik",
        "state": "",
        "country": "AZ",
        "coord": {
            "lon": 48.412788,
            "lat": 38.772629
        }
    },
    {
        "id": 147982,
        "name": "Imishli",
        "state": "",
        "country": "AZ",
        "coord": {
            "lon": 48.059952,
            "lat": 39.870949
        }
    },
    {
        "id": 148290,
        "name": "Jalilabad",
        "state": "",
        "country": "AZ",
        "coord": {
            "lon": 48.491859,
            "lat": 39.209629
        }
    },
    {
        "id": 148617,
        "name": "Aghdam Rayon",
        "state": "",
        "country": "AZ",
        "coord": {
            "lon": 47.0,
            "lat": 40.0
        }
    },
    {
        "id": 149039,
        "name": "Uwelini",
        "state": "",
        "country": "TZ",
        "coord": {
            "lon": 39.683331,
            "lat": -5.4
        }
    },
    {
        "id": 149310,
        "name": "Ujiji",
        "state": "",
        "country": "TZ",
        "coord": {
            "lon": 29.676109,
            "lat": -4.90556
        }
    },
    {
        "id": 149658,
        "name": "Tabora",
        "state": "",
        "country": "TZ",
        "coord": {
            "lon": 32.799999,
            "lat": -5.01667
        }
    },
    {
        "id": 150004,
        "name": "Shinyanga Region",
        "state": "",
        "country": "TZ",
        "coord": {
            "lon": 33.0,
            "lat": -3.75
        }
    },
    {
        "id": 150602,
        "name": "Coast Region",
        "state": "",
        "country": "TZ",
        "coord": {
            "lon": 39.0,
            "lat": -7.0
        }
    },
    {
        "id": 151211,
        "name": "Nyalikungu",
        "state": "",
        "country": "TZ",
        "coord": {
            "lon": 33.783329,
            "lat": -3.18333
        }
    },
    {
        "id": 151599,
        "name": "Ngudu",
        "state": "",
        "country": "TZ",
        "coord": {
            "lon": 33.333328,
            "lat": -2.96667
        }
    },
    {
        "id": 151986,
        "name": "Namanyere",
        "state": "",
        "country": "TZ",
        "coord": {
            "lon": 31.049999,
            "lat": -7.51667
        }
    },
    {
        "id": 152403,
        "name": "Mvomero",
        "state": "",
        "country": "TZ",
        "coord": {
            "lon": 38.666672,
            "lat": -6.25
        }
    },
    {
        "id": 152781,
        "name": "Mtinko",
        "state": "",
        "country": "TZ",
        "coord": {
            "lon": 34.849998,
            "lat": -4.55
        }
    },
    {
        "id": 153247,
        "name": "Monduli",
        "state": "",
        "country": "TZ",
        "coord": {
            "lon": 36.450001,
            "lat": -3.3
        }
    },
    {
        "id": 153772,
        "name": "Misasi",
        "state": "",
        "country": "TZ",
        "coord": {
            "lon": 33.083328,
            "lat": -3.0
        }
    },
    {
        "id": 154470,
        "name": "Mazinde",
        "state": "",
        "country": "TZ",
        "coord": {
            "lon": 38.216671,
            "lat": -4.8
        }
    },
    {
        "id": 154747,
        "name": "Marwa",
        "state": "",
        "country": "TZ",
        "coord": {
            "lon": 37.533329,
            "lat": -4.06667
        }
    },
    {
        "id": 155093,
        "name": "Makungu",
        "state": "",
        "country": "TZ",
        "coord": {
            "lon": 35.283329,
            "lat": -8.73333
        }
    },
    {
        "id": 155322,
        "name": "Magomeni",
        "state": "",
        "country": "TZ",
        "coord": {
            "lon": 38.116669,
            "lat": -5.23333
        }
    },
    {
        "id": 155921,
        "name": "Liwale",
        "state": "",
        "country": "TZ",
        "coord": {
            "lon": 37.933331,
            "lat": -9.76667
        }
    },
    {
        "id": 156513,
        "name": "Konde",
        "state": "",
        "country": "TZ",
        "coord": {
            "lon": 39.75,
            "lat": -4.95
        }
    },
    {
        "id": 157045,
        "name": "Kirya",
        "state": "",
        "country": "TZ",
        "coord": {
            "lon": 37.48333,
            "lat": -3.91667
        }
    },
    {
        "id": 157448,
        "name": "Kilimatinde",
        "state": "",
        "country": "TZ",
        "coord": {
            "lon": 34.950001,
            "lat": -5.85
        }
    },
    {
        "id": 157977,
        "name": "Kibiti",
        "state": "",
        "country": "TZ",
        "coord": {
            "lon": 38.937489,
            "lat": -7.72178
        }
    },
    {
        "id": 158214,
        "name": "Kasulu",
        "state": "",
        "country": "TZ",
        "coord": {
            "lon": 30.102501,
            "lat": -4.57667
        }
    },
    {
        "id": 158825,
        "name": "Izazi",
        "state": "",
        "country": "TZ",
        "coord": {
            "lon": 35.73333,
            "lat": -7.2
        }
    },
    {
        "id": 159186,
        "name": "Ilongero",
        "state": "",
        "country": "TZ",
        "coord": {
            "lon": 34.866669,
            "lat": -4.66667
        }
    },
    {
        "id": 159454,
        "name": "Igalula",
        "state": "",
        "country": "TZ",
        "coord": {
            "lon": 31.033331,
            "lat": -7.25
        }
    },
    {
        "id": 160192,
        "name": "Dodoma Region",
        "state": "",
        "country": "TZ",
        "coord": {
            "lon": 36.0,
            "lat": -6.0
        }
    },
    {
        "id": 160677,
        "name": "Chake Chake",
        "state": "",
        "country": "TZ",
        "coord": {
            "lon": 39.76659,
            "lat": -5.24586
        }
    },
    {
        "id": 161100,
        "name": "Boma la Ngombe",
        "state": "",
        "country": "TZ",
        "coord": {
            "lon": 37.150002,
            "lat": -3.33333
        }
    },
    {
        "id": 161808,
        "name": "Keshi",
        "state": "",
        "country": "TM",
        "coord": {
            "lon": 58.33857,
            "lat": 37.965511
        }
    },
    {
        "id": 162183,
        "name": "Ashgabat",
        "state": "",
        "country": "TM",
        "coord": {
            "lon": 58.383331,
            "lat": 37.950001
        }
    },
    {
        "id": 163470,
        "name": "Tall Salḩab",
        "state": "",
        "country": "SY",
        "coord": {
            "lon": 36.384609,
            "lat": 35.258839
        }
    },
    {
        "id": 163811,
        "name": "Tādif",
        "state": "",
        "country": "SY",
        "coord": {
            "lon": 37.530899,
            "lat": 36.348141
        }
    },
    {
        "id": 164398,
        "name": "Shaţḩah",
        "state": "",
        "country": "SY",
        "coord": {
            "lon": 36.243771,
            "lat": 35.505089
        }
    },
    {
        "id": 164952,
        "name": "Şalākhid",
        "state": "",
        "country": "SY",
        "coord": {
            "lon": 36.572708,
            "lat": 32.872711
        }
    },
    {
        "id": 165997,
        "name": "Jāsim",
        "state": "",
        "country": "SY",
        "coord": {
            "lon": 36.060181,
            "lat": 32.992329
        }
    },
    {
        "id": 166940,
        "name": "Mazra‘at Muḩammad Aḩmad",
        "state": "",
        "country": "SY",
        "coord": {
            "lon": 38.316669,
            "lat": 34.549999
        }
    },
    {
        "id": 167558,
        "name": "Medaya",
        "state": "",
        "country": "SY",
        "coord": {
            "lon": 36.103539,
            "lat": 33.690319
        }
    },
    {
        "id": 168620,
        "name": "Kafr Zaytā",
        "state": "",
        "country": "SY",
        "coord": {
            "lon": 36.602982,
            "lat": 35.374489
        }
    },
    {
        "id": 169179,
        "name": "Jarābulus",
        "state": "",
        "country": "SY",
        "coord": {
            "lon": 38.011108,
            "lat": 36.817501
        }
    },
    {
        "id": 169575,
        "name": "Homs Governorate",
        "state": "",
        "country": "SY",
        "coord": {
            "lon": 38.0,
            "lat": 34.25
        }
    },
    {
        "id": 170062,
        "name": "Aleppo Governorate",
        "state": "",
        "country": "SY",
        "coord": {
            "lon": 37.5,
            "lat": 36.25
        }
    },
    {
        "id": 170691,
        "name": "Dhībān",
        "state": "",
        "country": "SY",
        "coord": {
            "lon": 40.51667,
            "lat": 35.03653
        }
    },
    {
        "id": 171126,
        "name": "Buşrá ash Shām",
        "state": "",
        "country": "SY",
        "coord": {
            "lon": 36.482559,
            "lat": 32.52013
        }
    },
    {
        "id": 172173,
        "name": "‘Ayn ash Sharqīyah",
        "state": "",
        "country": "SY",
        "coord": {
            "lon": 36.099731,
            "lat": 35.331692
        }
    },
    {
        "id": 172454,
        "name": "As Sawdā",
        "state": "",
        "country": "SY",
        "coord": {
            "lon": 35.94389,
            "lat": 34.981522
        }
    },
    {
        "id": 172880,
        "name": "Arwād",
        "state": "",
        "country": "SY",
        "coord": {
            "lon": 35.858551,
            "lat": 34.855759
        }
    },
    {
        "id": 173322,
        "name": "Al Quşayr",
        "state": "",
        "country": "SY",
        "coord": {
            "lon": 36.57975,
            "lat": 34.50914
        }
    },
    {
        "id": 173480,
        "name": "Al Mayādīn",
        "state": "",
        "country": "SY",
        "coord": {
            "lon": 40.453461,
            "lat": 35.020889
        }
    },
    {
        "id": 173819,
        "name": "Al Ḩarāk",
        "state": "",
        "country": "SY",
        "coord": {
            "lon": 36.30994,
            "lat": 32.749321
        }
    },
    {
        "id": 174186,
        "name": "‘Afrīn",
        "state": "",
        "country": "SY",
        "coord": {
            "lon": 36.863049,
            "lat": 36.51598
        }
    },
    {
        "id": 174709,
        "name": "Yeghegnavan",
        "state": "",
        "country": "AM",
        "coord": {
            "lon": 44.625309,
            "lat": 39.83799
        }
    },
    {
        "id": 174764,
        "name": "Sisavan",
        "state": "",
        "country": "AM",
        "coord": {
            "lon": 44.666672,
            "lat": 39.900002
        }
    },
    {
        "id": 174828,
        "name": "Malishka",
        "state": "",
        "country": "AM",
        "coord": {
            "lon": 45.390041,
            "lat": 39.737579
        }
    },
    {
        "id": 174941,
        "name": "Akner",
        "state": "",
        "country": "AM",
        "coord": {
            "lon": 46.30732,
            "lat": 39.534908
        }
    },
    {
        "id": 174982,
        "name": "Republic of Armenia",
        "state": "",
        "country": "AM",
        "coord": {
            "lon": 45.0,
            "lat": 40.0
        }
    },
    {
        "id": 175961,
        "name": "Mpulungu",
        "state": "",
        "country": "ZM",
        "coord": {
            "lon": 31.11405,
            "lat": -8.76234
        }
    },
    {
        "id": 178202,
        "name": "Webuye",
        "state": "",
        "country": "KE",
        "coord": {
            "lon": 34.769661,
            "lat": 0.60751
        }
    },
    {
        "id": 180868,
        "name": "Sagana",
        "state": "",
        "country": "KE",
        "coord": {
            "lon": 37.200001,
            "lat": -0.66667
        }
    },
    {
        "id": 182701,
        "name": "Nyeri",
        "state": "",
        "country": "KE",
        "coord": {
            "lon": 36.94759,
            "lat": -0.42013
        }
    },
    {
        "id": 184570,
        "name": "Namanga",
        "state": "",
        "country": "KE",
        "coord": {
            "lon": 36.790531,
            "lat": -2.54327
        }
    },
    {
        "id": 186101,
        "name": "Mtito Andei",
        "state": "",
        "country": "KE",
        "coord": {
            "lon": 38.166309,
            "lat": -2.69009
        }
    },
    {
        "id": 187725,
        "name": "Maralal",
        "state": "",
        "country": "KE",
        "coord": {
            "lon": 36.69799,
            "lat": 1.09679
        }
    },
    {
        "id": 188492,
        "name": "Machakos",
        "state": "",
        "country": "KE",
        "coord": {
            "lon": 37.26667,
            "lat": -1.51667
        }
    },
    {
        "id": 189773,
        "name": "Lake View Estate",
        "state": "",
        "country": "KE",
        "coord": {
            "lon": 36.083328,
            "lat": -0.3
        }
    },
    {
        "id": 191837,
        "name": "Kihancha",
        "state": "",
        "country": "KE",
        "coord": {
            "lon": 34.62616,
            "lat": -1.18376
        }
    },
    {
        "id": 193627,
        "name": "Karuri",
        "state": "",
        "country": "KE",
        "coord": {
            "lon": 37.183331,
            "lat": -0.7
        }
    },
    {
        "id": 196740,
        "name": "Homa Lime Kowuor",
        "state": "",
        "country": "KE",
        "coord": {
            "lon": 34.474751,
            "lat": -0.43091
        }
    },
    {
        "id": 199604,
        "name": "Chepareria",
        "state": "",
        "country": "KE",
        "coord": {
            "lon": 35.203899,
            "lat": 1.30774
        }
    },
    {
        "id": 201463,
        "name": "Rwamagana",
        "state": "",
        "country": "RW",
        "coord": {
            "lon": 30.4347,
            "lat": -1.9487
        }
    },
    {
        "id": 203104,
        "name": "Byumba",
        "state": "",
        "country": "RW",
        "coord": {
            "lon": 30.067499,
            "lat": -1.5763
        }
    },
    {
        "id": 204953,
        "name": "Tshikapa",
        "state": "",
        "country": "CD",
        "coord": {
            "lon": 20.799999,
            "lat": -6.41667
        }
    },
    {
        "id": 207596,
        "name": "Mweka",
        "state": "",
        "country": "CD",
        "coord": {
            "lon": 21.566669,
            "lat": -4.85
        }
    },
    {
        "id": 211647,
        "name": "Lodja",
        "state": "",
        "country": "CD",
        "coord": {
            "lon": 23.433331,
            "lat": -3.48333
        }
    },
    {
        "id": 214138,
        "name": "Province du Kasaï Oriental",
        "state": "",
        "country": "CD",
        "coord": {
            "lon": 24.0,
            "lat": -4.0
        }
    },
    {
        "id": 215527,
        "name": "Kabinda",
        "state": "",
        "country": "CD",
        "coord": {
            "lon": 24.48333,
            "lat": -6.13333
        }
    },
    {
        "id": 216449,
        "name": "Gandajika",
        "state": "",
        "country": "CD",
        "coord": {
            "lon": 23.950001,
            "lat": -6.75
        }
    },
    {
        "id": 217834,
        "name": "Bukama",
        "state": "",
        "country": "CD",
        "coord": {
            "lon": 25.85,
            "lat": -9.2
        }
    },
    {
        "id": 219563,
        "name": "Bangenze",
        "state": "",
        "country": "CD",
        "coord": {
            "lon": 25.66136,
            "lat": 3.88856
        }
    },
    {
        "id": 223816,
        "name": "Republic of Djibouti",
        "state": "",
        "country": "DJ",
        "coord": {
            "lon": 42.5,
            "lat": 11.5
        }
    },
    {
        "id": 225858,
        "name": "Wobulenzi",
        "state": "",
        "country": "UG",
        "coord": {
            "lon": 32.512218,
            "lat": 0.72833
        }
    },
    {
        "id": 226608,
        "name": "Rukoki",
        "state": "",
        "country": "UG",
        "coord": {
            "lon": 30.1,
            "lat": 0.2
        }
    },
    {
        "id": 227593,
        "name": "Ntungamo",
        "state": "",
        "country": "UG",
        "coord": {
            "lon": 30.26417,
            "lat": -0.87944
        }
    },
    {
        "id": 228512,
        "name": "Nadiket",
        "state": "",
        "country": "UG",
        "coord": {
            "lon": 34.650002,
            "lat": 2.51667
        }
    },
    {
        "id": 229278,
        "name": "Mbale",
        "state": "",
        "country": "UG",
        "coord": {
            "lon": 34.17503,
            "lat": 1.08209
        }
    },
    {
        "id": 230088,
        "name": "Lokiporangatome",
        "state": "",
        "country": "UG",
        "coord": {
            "lon": 34.349998,
            "lat": 2.33333
        }
    },
    {
        "id": 231083,
        "name": "Kiryandongo",
        "state": "",
        "country": "UG",
        "coord": {
            "lon": 32.062248,
            "lat": 1.87633
        }
    },
    {
        "id": 231947,
        "name": "Katakwi",
        "state": "",
        "country": "UG",
        "coord": {
            "lon": 33.96611,
            "lat": 1.89111
        }
    },
    {
        "id": 232571,
        "name": "Kalangala",
        "state": "",
        "country": "UG",
        "coord": {
            "lon": 32.224998,
            "lat": -0.30889
        }
    },
    {
        "id": 233382,
        "name": "Gombe",
        "state": "",
        "country": "UG",
        "coord": {
            "lon": 32.088058,
            "lat": 0.20333
        }
    },
    {
        "id": 234004,
        "name": "Butaleja",
        "state": "",
        "country": "UG",
        "coord": {
            "lon": 33.951111,
            "lat": 0.91194
        }
    },
    {
        "id": 234412,
        "name": "Bukedea",
        "state": "",
        "country": "UG",
        "coord": {
            "lon": 34.05056,
            "lat": 1.31694
        }
    },
    {
        "id": 235186,
        "name": "Amuria",
        "state": "",
        "country": "UG",
        "coord": {
            "lon": 33.651112,
            "lat": 2.00361
        }
    },
    {
        "id": 235888,
        "name": "Youhamba",
        "state": "",
        "country": "CF",
        "coord": {
            "lon": 20.950001,
            "lat": 7.23333
        }
    },
    {
        "id": 237379,
        "name": "Ndélé",
        "state": "",
        "country": "CF",
        "coord": {
            "lon": 20.64728,
            "lat": 8.41091
        }
    },
    {
        "id": 239899,
        "name": "Bria",
        "state": "",
        "country": "CF",
        "coord": {
            "lon": 21.98633,
            "lat": 6.54233
        }
    },
    {
        "id": 241302,
        "name": "English River",
        "state": "",
        "country": "SC",
        "coord": {
            "lon": 55.450001,
            "lat": -4.59167
        }
    },
    {
        "id": 245338,
        "name": "Am Timan",
        "state": "",
        "country": "TD",
        "coord": {
            "lon": 20.2827,
            "lat": 11.0297
        }
    },
    {
        "id": 246345,
        "name": "Umm al Qiţţayn",
        "state": "",
        "country": "JO",
        "coord": {
            "lon": 36.62944,
            "lat": 32.315632
        }
    },
    {
        "id": 247340,
        "name": "Raymūn",
        "state": "",
        "country": "JO",
        "coord": {
            "lon": 35.825321,
            "lat": 32.28339
        }
    },
    {
        "id": 248434,
        "name": "Kitim",
        "state": "",
        "country": "JO",
        "coord": {
            "lon": 35.89563,
            "lat": 32.43832
        }
    },
    {
        "id": 248944,
        "name": "Irbid",
        "state": "",
        "country": "JO",
        "coord": {
            "lon": 35.833328,
            "lat": 32.5
        }
    },
    {
        "id": 250052,
        "name": "Balīlā",
        "state": "",
        "country": "JO",
        "coord": {
            "lon": 35.935051,
            "lat": 32.388062
        }
    },
    {
        "id": 250188,
        "name": "Aţ Ţayyibah",
        "state": "",
        "country": "JO",
        "coord": {
            "lon": 35.459969,
            "lat": 30.256611
        }
    },
    {
        "id": 250441,
        "name": "Amman",
        "state": "",
        "country": "JO",
        "coord": {
            "lon": 35.94503,
            "lat": 31.955219
        }
    },
    {
        "id": 250625,
        "name": "Al Karak",
        "state": "",
        "country": "JO",
        "coord": {
            "lon": 35.75,
            "lat": 31.16667
        }
    },
    {
        "id": 251187,
        "name": "Zonianá",
        "state": "",
        "country": "GR",
        "coord": {
            "lon": 24.829439,
            "lat": 35.295021
        }
    },
    {
        "id": 251366,
        "name": "Gérgeri",
        "state": "",
        "country": "GR",
        "coord": {
            "lon": 24.950001,
            "lat": 35.133331
        }
    },
    {
        "id": 251823,
        "name": "Vónitsa",
        "state": "",
        "country": "GR",
        "coord": {
            "lon": 20.886391,
            "lat": 38.916389
        }
    },
    {
        "id": 252101,
        "name": "Vágia",
        "state": "",
        "country": "GR",
        "coord": {
            "lon": 23.183331,
            "lat": 38.316669
        }
    },
    {
        "id": 252270,
        "name": "Vári",
        "state": "",
        "country": "GR",
        "coord": {
            "lon": 23.80809,
            "lat": 37.8312
        }
    },
    {
        "id": 252661,
        "name": "Trikala",
        "state": "",
        "country": "GR",
        "coord": {
            "lon": 21.5,
            "lat": 39.666672
        }
    },
    {
        "id": 252889,
        "name": "Thrapsanón",
        "state": "",
        "country": "GR",
        "coord": {
            "lon": 25.28091,
            "lat": 35.187981
        }
    },
    {
        "id": 252989,
        "name": "Terpsithéa",
        "state": "",
        "country": "GR",
        "coord": {
            "lon": 22.366671,
            "lat": 39.616669
        }
    },
    {
        "id": 253302,
        "name": "Stamáta",
        "state": "",
        "country": "GR",
        "coord": {
            "lon": 23.883329,
            "lat": 38.133331
        }
    },
    {
        "id": 253456,
        "name": "Soúda",
        "state": "",
        "country": "GR",
        "coord": {
            "lon": 24.07444,
            "lat": 35.48444
        }
    },
    {
        "id": 253717,
        "name": "Skalánion",
        "state": "",
        "country": "GR",
        "coord": {
            "lon": 25.18684,
            "lat": 35.282619
        }
    },
    {
        "id": 253996,
        "name": "Sérifos",
        "state": "",
        "country": "GR",
        "coord": {
            "lon": 24.5,
            "lat": 37.150002
        }
    },
    {
        "id": 254170,
        "name": "Roviés",
        "state": "",
        "country": "GR",
        "coord": {
            "lon": 23.23333,
            "lat": 38.816669
        }
    },
    {
        "id": 254546,
        "name": "Psachná",
        "state": "",
        "country": "GR",
        "coord": {
            "lon": 23.633329,
            "lat": 38.583328
        }
    },
    {
        "id": 254898,
        "name": "Politiká",
        "state": "",
        "country": "GR",
        "coord": {
            "lon": 23.549999,
            "lat": 38.599998
        }
    },
    {
        "id": 255096,
        "name": "Plános",
        "state": "",
        "country": "GR",
        "coord": {
            "lon": 20.85,
            "lat": 37.816669
        }
    },
    {
        "id": 255293,
        "name": "Pýlos",
        "state": "",
        "country": "GR",
        "coord": {
            "lon": 21.69639,
            "lat": 36.913441
        }
    },
    {
        "id": 255507,
        "name": "Perivólia",
        "state": "",
        "country": "GR",
        "coord": {
            "lon": 23.98333,
            "lat": 35.48333
        }
    },
    {
        "id": 255683,
        "name": "Pátra",
        "state": "",
        "country": "GR",
        "coord": {
            "lon": 21.73444,
            "lat": 38.244438
        }
    },
    {
        "id": 255760,
        "name": "Paramythiá",
        "state": "",
        "country": "GR",
        "coord": {
            "lon": 20.51111,
            "lat": 39.471111
        }
    },
    {
        "id": 256066,
        "name": "Palaiópyrgos",
        "state": "",
        "country": "GR",
        "coord": {
            "lon": 21.817221,
            "lat": 39.60722
        }
    },
    {
        "id": 256223,
        "name": "Ovriá",
        "state": "",
        "country": "GR",
        "coord": {
            "lon": 21.716669,
            "lat": 38.183331
        }
    },
    {
        "id": 256429,
        "name": "Níkaia",
        "state": "",
        "country": "GR",
        "coord": {
            "lon": 23.65,
            "lat": 37.966671
        }
    },
    {
        "id": 256554,
        "name": "Nénita",
        "state": "",
        "country": "GR",
        "coord": {
            "lon": 26.09306,
            "lat": 38.238892
        }
    },
    {
        "id": 256596,
        "name": "Néa Manoláda",
        "state": "",
        "country": "GR",
        "coord": {
            "lon": 21.383329,
            "lat": 38.049999
        }
    },
    {
        "id": 256637,
        "name": "Náfplio",
        "state": "",
        "country": "GR",
        "coord": {
            "lon": 22.805281,
            "lat": 37.568279
        }
    },
    {
        "id": 256759,
        "name": "Morfovoúni",
        "state": "",
        "country": "GR",
        "coord": {
            "lon": 21.75,
            "lat": 39.352501
        }
    },
    {
        "id": 256872,
        "name": "Mytikas",
        "state": "",
        "country": "GR",
        "coord": {
            "lon": 23.65365,
            "lat": 38.443729
        }
    },
    {
        "id": 257080,
        "name": "Megísti",
        "state": "",
        "country": "GR",
        "coord": {
            "lon": 29.593611,
            "lat": 36.148891
        }
    },
    {
        "id": 257258,
        "name": "Agía Triáda",
        "state": "",
        "country": "GR",
        "coord": {
            "lon": 21.898609,
            "lat": 39.463329
        }
    },
    {
        "id": 257448,
        "name": "Megála Kalývia",
        "state": "",
        "country": "GR",
        "coord": {
            "lon": 21.7875,
            "lat": 39.5
        }
    },
    {
        "id": 257811,
        "name": "Mándra",
        "state": "",
        "country": "GR",
        "coord": {
            "lon": 23.5,
            "lat": 38.066669
        }
    },
    {
        "id": 258004,
        "name": "Magoúla",
        "state": "",
        "country": "GR",
        "coord": {
            "lon": 23.83333,
            "lat": 38.416672
        }
    },
    {
        "id": 258198,
        "name": "Livádia",
        "state": "",
        "country": "GR",
        "coord": {
            "lon": 24.933331,
            "lat": 37.833328
        }
    },
    {
        "id": 258445,
        "name": "Lefkada",
        "state": "",
        "country": "GR",
        "coord": {
            "lon": 20.66667,
            "lat": 38.75
        }
    },
    {
        "id": 258576,
        "name": "Lárisa",
        "state": "",
        "country": "GR",
        "coord": {
            "lon": 22.42028,
            "lat": 39.637218
        }
    },
    {
        "id": 258754,
        "name": "Krokeés",
        "state": "",
        "country": "GR",
        "coord": {
            "lon": 22.549999,
            "lat": 36.883331
        }
    },
    {
        "id": 258998,
        "name": "Kouroúpi",
        "state": "",
        "country": "GR",
        "coord": {
            "lon": 24.950001,
            "lat": 37.416672
        }
    },
    {
        "id": 259537,
        "name": "Kokkónion",
        "state": "",
        "country": "GR",
        "coord": {
            "lon": 22.783331,
            "lat": 37.966671
        }
    },
    {
        "id": 259745,
        "name": "Kipséli",
        "state": "",
        "country": "GR",
        "coord": {
            "lon": 23.74107,
            "lat": 38.00272
        }
    },
    {
        "id": 259917,
        "name": "Chóra",
        "state": "",
        "country": "GR",
        "coord": {
            "lon": 26.90556,
            "lat": 37.703609
        }
    },
    {
        "id": 260128,
        "name": "Khalkoútsion",
        "state": "",
        "country": "GR",
        "coord": {
            "lon": 23.73333,
            "lat": 38.333328
        }
    },
    {
        "id": 260220,
        "name": "Kerasochóri",
        "state": "",
        "country": "GR",
        "coord": {
            "lon": 21.637779,
            "lat": 39.005562
        }
    },
    {
        "id": 260506,
        "name": "Káto Patísia",
        "state": "",
        "country": "GR",
        "coord": {
            "lon": 23.73333,
            "lat": 38.01667
        }
    },
    {
        "id": 260780,
        "name": "Kastráki",
        "state": "",
        "country": "GR",
        "coord": {
            "lon": 21.618059,
            "lat": 39.715561
        }
    },
    {
        "id": 260979,
        "name": "Karés Apokorrónou",
        "state": "",
        "country": "GR",
        "coord": {
            "lon": 24.1,
            "lat": 35.383331
        }
    },
    {
        "id": 261167,
        "name": "Kanaláki",
        "state": "",
        "country": "GR",
        "coord": {
            "lon": 20.6,
            "lat": 39.233608
        }
    },
    {
        "id": 261431,
        "name": "Kallifóni",
        "state": "",
        "country": "GR",
        "coord": {
            "lon": 21.95611,
            "lat": 39.272499
        }
    },
    {
        "id": 261614,
        "name": "Álimos",
        "state": "",
        "country": "GR",
        "coord": {
            "lon": 23.72361,
            "lat": 37.910332
        }
    },
    {
        "id": 261723,
        "name": "Ystérnia",
        "state": "",
        "country": "GR",
        "coord": {
            "lon": 25.053301,
            "lat": 37.621799
        }
    },
    {
        "id": 261814,
        "name": "Ierápetra",
        "state": "",
        "country": "GR",
        "coord": {
            "lon": 25.735279,
            "lat": 35.009998
        }
    },
    {
        "id": 261921,
        "name": "Goúves",
        "state": "",
        "country": "GR",
        "coord": {
            "lon": 25.313271,
            "lat": 35.310501
        }
    },
    {
        "id": 262104,
        "name": "Gargaliánoi",
        "state": "",
        "country": "GR",
        "coord": {
            "lon": 21.633329,
            "lat": 37.066669
        }
    },
    {
        "id": 262383,
        "name": "Fyteíes",
        "state": "",
        "country": "GR",
        "coord": {
            "lon": 21.183331,
            "lat": 38.700001
        }
    },
    {
        "id": 262503,
        "name": "Magoúla",
        "state": "",
        "country": "GR",
        "coord": {
            "lon": 21.80278,
            "lat": 39.455559
        }
    },
    {
        "id": 262636,
        "name": "Epitálio",
        "state": "",
        "country": "GR",
        "coord": {
            "lon": 21.5,
            "lat": 37.633331
        }
    },
    {
        "id": 262833,
        "name": "Ekáli",
        "state": "",
        "country": "GR",
        "coord": {
            "lon": 23.83333,
            "lat": 38.116669
        }
    },
    {
        "id": 263178,
        "name": "Dhervéni",
        "state": "",
        "country": "GR",
        "coord": {
            "lon": 22.41667,
            "lat": 38.133331
        }
    },
    {
        "id": 263730,
        "name": "Ágios Spyrídon",
        "state": "",
        "country": "GR",
        "coord": {
            "lon": 20.86306,
            "lat": 39.14444
        }
    },
    {
        "id": 263997,
        "name": "Áyios Athanásios",
        "state": "",
        "country": "GR",
        "coord": {
            "lon": 22.76667,
            "lat": 39.23333
        }
    },
    {
        "id": 264221,
        "name": "Agía Marína",
        "state": "",
        "country": "GR",
        "coord": {
            "lon": 26.866671,
            "lat": 37.150002
        }
    },
    {
        "id": 264408,
        "name": "Astypálaia",
        "state": "",
        "country": "GR",
        "coord": {
            "lon": 26.35,
            "lat": 36.549999
        }
    },
    {
        "id": 264545,
        "name": "Nomós Ártas",
        "state": "",
        "country": "GR",
        "coord": {
            "lon": 21.0,
            "lat": 39.166672
        }
    },
    {
        "id": 264650,
        "name": "Áris",
        "state": "",
        "country": "GR",
        "coord": {
            "lon": 22.0,
            "lat": 37.099998
        }
    },
    {
        "id": 264793,
        "name": "Anthíli",
        "state": "",
        "country": "GR",
        "coord": {
            "lon": 22.466669,
            "lat": 38.849998
        }
    },
    {
        "id": 265001,
        "name": "Megalochóri",
        "state": "",
        "country": "GR",
        "coord": {
            "lon": 23.34634,
            "lat": 37.712009
        }
    },
    {
        "id": 265100,
        "name": "Anávyssos",
        "state": "",
        "country": "GR",
        "coord": {
            "lon": 23.950001,
            "lat": 37.73333
        }
    },
    {
        "id": 265240,
        "name": "Ampelákia",
        "state": "",
        "country": "GR",
        "coord": {
            "lon": 23.52445,
            "lat": 37.94902
        }
    },
    {
        "id": 265420,
        "name": "Akraifnía",
        "state": "",
        "country": "GR",
        "coord": {
            "lon": 23.216669,
            "lat": 38.450001
        }
    },
    {
        "id": 265560,
        "name": "Agrínio",
        "state": "",
        "country": "GR",
        "coord": {
            "lon": 21.40778,
            "lat": 38.621391
        }
    },
    {
        "id": 268064,
        "name": "Sidon",
        "state": "",
        "country": "LB",
        "coord": {
            "lon": 35.368889,
            "lat": 33.563061
        }
    },
    {
        "id": 274313,
        "name": "Hâsbaïya",
        "state": "",
        "country": "LB",
        "coord": {
            "lon": 35.685001,
            "lat": 33.397781
        }
    },
    {
        "id": 277130,
        "name": "Baalbek",
        "state": "",
        "country": "LB",
        "coord": {
            "lon": 36.21806,
            "lat": 34.005829
        }
    },
    {
        "id": 280328,
        "name": "Batroûn",
        "state": "",
        "country": "LB",
        "coord": {
            "lon": 35.658058,
            "lat": 34.25528
        }
    },
    {
        "id": 281141,
        "name": "Dayr al Balaḩ",
        "state": "",
        "country": "PS",
        "coord": {
            "lon": 34.345249,
            "lat": 31.41655
        }
    },
    {
        "id": 281227,
        "name": "Zaytā Jammā‘īn",
        "state": "",
        "country": "PS",
        "coord": {
            "lon": 35.185951,
            "lat": 32.136978
        }
    },
    {
        "id": 281548,
        "name": "Ūdalah",
        "state": "",
        "country": "PS",
        "coord": {
            "lon": 35.276459,
            "lat": 32.153629
        }
    },
    {
        "id": 281690,
        "name": "Taffūḩ",
        "state": "",
        "country": "PS",
        "coord": {
            "lon": 35.04966,
            "lat": 31.538549
        }
    },
    {
        "id": 281819,
        "name": "Shūfah",
        "state": "",
        "country": "PS",
        "coord": {
            "lon": 35.081348,
            "lat": 32.275509
        }
    },
    {
        "id": 282119,
        "name": "Rummanah",
        "state": "",
        "country": "PS",
        "coord": {
            "lon": 35.2048,
            "lat": 32.524509
        }
    },
    {
        "id": 282283,
        "name": "Quşrah",
        "state": "",
        "country": "PS",
        "coord": {
            "lon": 35.330051,
            "lat": 32.08543
        }
    },
    {
        "id": 282461,
        "name": "Qalandiyā",
        "state": "",
        "country": "PS",
        "coord": {
            "lon": 35.20816,
            "lat": 31.86289
        }
    },
    {
        "id": 282687,
        "name": "Mikhmās",
        "state": "",
        "country": "PS",
        "coord": {
            "lon": 35.275959,
            "lat": 31.872101
        }
    },
    {
        "id": 282997,
        "name": "Al Lubban ash Sharqīyah",
        "state": "",
        "country": "PS",
        "coord": {
            "lon": 35.240299,
            "lat": 32.07011
        }
    },
    {
        "id": 283129,
        "name": "Bayt ‘Awwā",
        "state": "",
        "country": "PS",
        "coord": {
            "lon": 34.949379,
            "lat": 31.509109
        }
    },
    {
        "id": 283245,
        "name": "Kharbathā Banī Ḩārith",
        "state": "",
        "country": "PS",
        "coord": {
            "lon": 35.071941,
            "lat": 31.94508
        }
    },
    {
        "id": 283366,
        "name": "Kafr Qaddūm",
        "state": "",
        "country": "PS",
        "coord": {
            "lon": 35.144711,
            "lat": 32.221619
        }
    },
    {
        "id": 283444,
        "name": "Al Judayyidah",
        "state": "",
        "country": "PS",
        "coord": {
            "lon": 35.301079,
            "lat": 32.335411
        }
    },
    {
        "id": 283571,
        "name": "Jaba‘",
        "state": "",
        "country": "PS",
        "coord": {
            "lon": 35.258678,
            "lat": 31.857269
        }
    },
    {
        "id": 283812,
        "name": "Ḩajjah",
        "state": "",
        "country": "PS",
        "coord": {
            "lon": 35.130772,
            "lat": 32.204269
        }
    },
    {
        "id": 284054,
        "name": "Dayr Sharaf",
        "state": "",
        "country": "PS",
        "coord": {
            "lon": 35.188931,
            "lat": 32.253262
        }
    },
    {
        "id": 284104,
        "name": "Dayr Abū Mash‘al",
        "state": "",
        "country": "PS",
        "coord": {
            "lon": 35.068439,
            "lat": 31.99881
        }
    },
    {
        "id": 284269,
        "name": "Bil‘īn",
        "state": "",
        "country": "PS",
        "coord": {
            "lon": 35.072041,
            "lat": 31.92835
        }
    },
    {
        "id": 284304,
        "name": "Bayt Sāḩūr",
        "state": "",
        "country": "PS",
        "coord": {
            "lon": 35.226311,
            "lat": 31.700951
        }
    },
    {
        "id": 284329,
        "name": "Bayt Ūmmar",
        "state": "",
        "country": "PS",
        "coord": {
            "lon": 35.104462,
            "lat": 31.623289
        }
    },
    {
        "id": 284405,
        "name": "Barţa‘ah ash Sharqīyah",
        "state": "",
        "country": "PS",
        "coord": {
            "lon": 35.093601,
            "lat": 32.473042
        }
    },
    {
        "id": 284487,
        "name": "Az Zabābidah",
        "state": "",
        "country": "PS",
        "coord": {
            "lon": 35.324108,
            "lat": 32.38665
        }
    },
    {
        "id": 284558,
        "name": "Aţ Ţaybah",
        "state": "",
        "country": "PS",
        "coord": {
            "lon": 35.185741,
            "lat": 32.514938
        }
    },
    {
        "id": 284881,
        "name": "Ar Rīḩīyah",
        "state": "",
        "country": "PS",
        "coord": {
            "lon": 35.077808,
            "lat": 31.4695
        }
    },
    {
        "id": 284939,
        "name": "An Nāqūrah",
        "state": "",
        "country": "PS",
        "coord": {
            "lon": 35.201351,
            "lat": 32.26506
        }
    },
    {
        "id": 285033,
        "name": "Al Mazra‘ah ash Sharqīyah",
        "state": "",
        "country": "PS",
        "coord": {
            "lon": 35.281521,
            "lat": 32.000179
        }
    },
    {
        "id": 285102,
        "name": "Al Faşāyil",
        "state": "",
        "country": "PS",
        "coord": {
            "lon": 35.443508,
            "lat": 32.025089
        }
    },
    {
        "id": 285220,
        "name": "Abū Qashsh",
        "state": "",
        "country": "PS",
        "coord": {
            "lon": 35.184261,
            "lat": 31.94883
        }
    },
    {
        "id": 285704,
        "name": "As Sālimīyah",
        "state": "",
        "country": "KW",
        "coord": {
            "lon": 48.076111,
            "lat": 29.333891
        }
    },
    {
        "id": 285799,
        "name": "Al Jahrā’",
        "state": "",
        "country": "KW",
        "coord": {
            "lon": 47.658058,
            "lat": 29.3375
        }
    },
    {
        "id": 286239,
        "name": "Sūr Yāl Bū Rashīd",
        "state": "",
        "country": "OM",
        "coord": {
            "lon": 57.263611,
            "lat": 23.881109
        }
    },
    {
        "id": 287218,
        "name": "Mirbāţ",
        "state": "",
        "country": "OM",
        "coord": {
            "lon": 54.690632,
            "lat": 16.99638
        }
    },
    {
        "id": 288507,
        "name": "Dib Dibba",
        "state": "",
        "country": "OM",
        "coord": {
            "lon": 56.257778,
            "lat": 26.197781
        }
    },
    {
        "id": 288979,
        "name": "Şa‘rā’ al Qadīmah",
        "state": "",
        "country": "OM",
        "coord": {
            "lon": 55.78389,
            "lat": 24.25
        }
    },
    {
        "id": 289524,
        "name": "Umm Şalāl ‘Alī",
        "state": "",
        "country": "QA",
        "coord": {
            "lon": 51.397499,
            "lat": 25.469721
        }
    },
    {
        "id": 289911,
        "name": "Al Wusayl",
        "state": "",
        "country": "QA",
        "coord": {
            "lon": 51.485279,
            "lat": 25.497499
        }
    },
    {
        "id": 290123,
        "name": "Samāhīj",
        "state": "",
        "country": "BH",
        "coord": {
            "lon": 50.634998,
            "lat": 26.280001
        }
    },
    {
        "id": 290363,
        "name": "Al Ḩadd",
        "state": "",
        "country": "BH",
        "coord": {
            "lon": 50.654171,
            "lat": 26.24556
        }
    },
    {
        "id": 291279,
        "name": "Muzayri‘",
        "state": "",
        "country": "AE",
        "coord": {
            "lon": 53.788101,
            "lat": 23.143551
        }
    },
    {
        "id": 292878,
        "name": "Al Fujairah City",
        "state": "",
        "country": "AE",
        "coord": {
            "lon": 56.341412,
            "lat": 25.116409
        }
    },
    {
        "id": 293148,
        "name": "Yotvata",
        "state": "",
        "country": "IL",
        "coord": {
            "lon": 35.049999,
            "lat": 29.883329
        }
    },
    {
        "id": 293273,
        "name": "‘Uzeir",
        "state": "",
        "country": "IL",
        "coord": {
            "lon": 35.329842,
            "lat": 32.792122
        }
    },
    {
        "id": 293371,
        "name": "Tel H̱anan",
        "state": "",
        "country": "IL",
        "coord": {
            "lon": 35.03167,
            "lat": 32.774719
        }
    },
    {
        "id": 293655,
        "name": "Sakhnīn",
        "state": "",
        "country": "IL",
        "coord": {
            "lon": 35.293331,
            "lat": 32.862221
        }
    },
    {
        "id": 293783,
        "name": "Ramat HaSharon",
        "state": "",
        "country": "IL",
        "coord": {
            "lon": 34.841671,
            "lat": 32.147221
        }
    },
    {
        "id": 293844,
        "name": "Qiryat Bialik",
        "state": "",
        "country": "IL",
        "coord": {
            "lon": 35.085831,
            "lat": 32.827499
        }
    },
    {
        "id": 293977,
        "name": "Qiryat Ono",
        "state": "",
        "country": "IL",
        "coord": {
            "lon": 34.866669,
            "lat": 32.022221
        }
    },
    {
        "id": 294074,
        "name": "Ness Ziona",
        "state": "",
        "country": "IL",
        "coord": {
            "lon": 34.798679,
            "lat": 31.929331
        }
    },
    {
        "id": 294205,
        "name": "Mi‘ilyā",
        "state": "",
        "country": "IL",
        "coord": {
            "lon": 35.25658,
            "lat": 33.027809
        }
    },
    {
        "id": 294434,
        "name": "Lakhish",
        "state": "",
        "country": "IL",
        "coord": {
            "lon": 34.843128,
            "lat": 31.561291
        }
    },
    {
        "id": 294600,
        "name": "Kfar Yasif",
        "state": "",
        "country": "IL",
        "coord": {
            "lon": 35.1623,
            "lat": 32.95451
        }
    },
    {
        "id": 294640,
        "name": "State of Israel",
        "state": "",
        "country": "IL",
        "coord": {
            "lon": 34.75,
            "lat": 31.5
        }
    },
    {
        "id": 294817,
        "name": "H̱aẕerim",
        "state": "",
        "country": "IL",
        "coord": {
            "lon": 34.713902,
            "lat": 31.24057
        }
    },
    {
        "id": 295080,
        "name": "Gan Yavne",
        "state": "",
        "country": "IL",
        "coord": {
            "lon": 34.706589,
            "lat": 31.787371
        }
    },
    {
        "id": 295189,
        "name": "‘En Netafim",
        "state": "",
        "country": "IL",
        "coord": {
            "lon": 34.882801,
            "lat": 29.584299
        }
    },
    {
        "id": 295365,
        "name": "Daliyat al Karmel",
        "state": "",
        "country": "IL",
        "coord": {
            "lon": 35.040829,
            "lat": 32.693611
        }
    },
    {
        "id": 295471,
        "name": "Bet ‘Ezra",
        "state": "",
        "country": "IL",
        "coord": {
            "lon": 34.655941,
            "lat": 31.736059
        }
    },
    {
        "id": 295584,
        "name": "Azor",
        "state": "",
        "country": "IL",
        "coord": {
            "lon": 34.810558,
            "lat": 32.019169
        }
    },
    {
        "id": 295982,
        "name": "Zara",
        "state": "",
        "country": "TR",
        "coord": {
            "lon": 37.758331,
            "lat": 39.897781
        }
    },
    {
        "id": 296708,
        "name": "Yıldızeli",
        "state": "",
        "country": "TR",
        "coord": {
            "lon": 36.598888,
            "lat": 39.86639
        }
    },
    {
        "id": 296947,
        "name": "Yenipınar",
        "state": "",
        "country": "TR",
        "coord": {
            "lon": 41.302471,
            "lat": 37.843449
        }
    },
    {
        "id": 297280,
        "name": "Yediyol",
        "state": "",
        "country": "TR",
        "coord": {
            "lon": 41.11639,
            "lat": 37.942501
        }
    },
    {
        "id": 297564,
        "name": "Yatağan",
        "state": "",
        "country": "TR",
        "coord": {
            "lon": 28.14279,
            "lat": 37.34026
        }
    },
    {
        "id": 298117,
        "name": "Van",
        "state": "",
        "country": "TR",
        "coord": {
            "lon": 43.38311,
            "lat": 38.49239
        }
    },
    {
        "id": 298388,
        "name": "Ulus",
        "state": "",
        "country": "TR",
        "coord": {
            "lon": 32.85339,
            "lat": 39.93956
        }
    },
    {
        "id": 298727,
        "name": "Tutak",
        "state": "",
        "country": "TR",
        "coord": {
            "lon": 42.770561,
            "lat": 39.540722
        }
    },
    {
        "id": 298977,
        "name": "Toprakkale",
        "state": "",
        "country": "TR",
        "coord": {
            "lon": 36.14661,
            "lat": 37.06855
        }
    },
    {
        "id": 299575,
        "name": "Tavas",
        "state": "",
        "country": "TR",
        "coord": {
            "lon": 29.07058,
            "lat": 37.573509
        }
    },
    {
        "id": 300058,
        "name": "Susurluk",
        "state": "",
        "country": "TR",
        "coord": {
            "lon": 28.15778,
            "lat": 39.913609
        }
    },
    {
        "id": 300352,
        "name": "Sorgun",
        "state": "",
        "country": "TR",
        "coord": {
            "lon": 35.185959,
            "lat": 39.81012
        }
    },
    {
        "id": 300617,
        "name": "Sivas",
        "state": "",
        "country": "TR",
        "coord": {
            "lon": 37.001949,
            "lat": 39.791649
        }
    },
    {
        "id": 300796,
        "name": "Silvan",
        "state": "",
        "country": "TR",
        "coord": {
            "lon": 41.00806,
            "lat": 38.141941
        }
    },
    {
        "id": 301116,
        "name": "Şereflikoçhisar",
        "state": "",
        "country": "TR",
        "coord": {
            "lon": 33.538601,
            "lat": 38.939251
        }
    },
    {
        "id": 301290,
        "name": "Sekili",
        "state": "",
        "country": "TR",
        "coord": {
            "lon": 37.673328,
            "lat": 36.978329
        }
    },
    {
        "id": 301529,
        "name": "Edremit",
        "state": "",
        "country": "TR",
        "coord": {
            "lon": 43.236488,
            "lat": 38.41803
        }
    },
    {
        "id": 301731,
        "name": "Sarıgöl",
        "state": "",
        "country": "TR",
        "coord": {
            "lon": 28.69663,
            "lat": 38.239529
        }
    },
    {
        "id": 302043,
        "name": "Salihli",
        "state": "",
        "country": "TR",
        "coord": {
            "lon": 28.147739,
            "lat": 38.482578
        }
    },
    {
        "id": 302667,
        "name": "Pınarbaşı",
        "state": "",
        "country": "TR",
        "coord": {
            "lon": 36.393139,
            "lat": 38.722851
        }
    },
    {
        "id": 302912,
        "name": "Palu",
        "state": "",
        "country": "TR",
        "coord": {
            "lon": 39.92889,
            "lat": 38.691669
        }
    },
    {
        "id": 303304,
        "name": "Ortaköy",
        "state": "",
        "country": "TR",
        "coord": {
            "lon": 43.288891,
            "lat": 37.326389
        }
    },
    {
        "id": 303648,
        "name": "Dara",
        "state": "",
        "country": "TR",
        "coord": {
            "lon": 40.954369,
            "lat": 37.177631
        }
    },
    {
        "id": 303873,
        "name": "Nazilli",
        "state": "",
        "country": "TR",
        "coord": {
            "lon": 28.32225,
            "lat": 37.916309
        }
    },
    {
        "id": 304341,
        "name": "Minare",
        "state": "",
        "country": "TR",
        "coord": {
            "lon": 39.00444,
            "lat": 36.930828
        }
    },
    {
        "id": 304734,
        "name": "Mazıdağı",
        "state": "",
        "country": "TR",
        "coord": {
            "lon": 40.48806,
            "lat": 37.477501
        }
    },
    {
        "id": 304919,
        "name": "Malatya",
        "state": "",
        "country": "TR",
        "coord": {
            "lon": 38.0,
            "lat": 38.5
        }
    },
    {
        "id": 305268,
        "name": "Kütahya",
        "state": "",
        "country": "TR",
        "coord": {
            "lon": 29.98333,
            "lat": 39.424171
        }
    },
    {
        "id": 305750,
        "name": "Kulp",
        "state": "",
        "country": "TR",
        "coord": {
            "lon": 41.012218,
            "lat": 38.497219
        }
    },
    {
        "id": 306308,
        "name": "Köseli",
        "state": "",
        "country": "TR",
        "coord": {
            "lon": 40.605,
            "lat": 37.837502
        }
    },
    {
        "id": 306908,
        "name": "Koçarlı",
        "state": "",
        "country": "TR",
        "coord": {
            "lon": 27.70582,
            "lat": 37.761131
        }
    },
    {
        "id": 307623,
        "name": "Kırkağaç",
        "state": "",
        "country": "TR",
        "coord": {
            "lon": 27.66925,
            "lat": 39.10638
        }
    },
    {
        "id": 308217,
        "name": "Kemer",
        "state": "",
        "country": "TR",
        "coord": {
            "lon": 30.063061,
            "lat": 37.352219
        }
    },
    {
        "id": 308455,
        "name": "Kazancı",
        "state": "",
        "country": "TR",
        "coord": {
            "lon": 40.600079,
            "lat": 37.770741
        }
    },
    {
        "id": 308697,
        "name": "Kayabağlar",
        "state": "",
        "country": "TR",
        "coord": {
            "lon": 41.665279,
            "lat": 37.982498
        }
    },
    {
        "id": 309199,
        "name": "Karayazı",
        "state": "",
        "country": "TR",
        "coord": {
            "lon": 42.145611,
            "lat": 39.702801
        }
    },
    {
        "id": 309683,
        "name": "Karakise",
        "state": "",
        "country": "TR",
        "coord": {
            "lon": 36.216671,
            "lat": 36.849998
        }
    },
    {
        "id": 310641,
        "name": "Kaman",
        "state": "",
        "country": "TR",
        "coord": {
            "lon": 33.723888,
            "lat": 39.357498
        }
    },
    {
        "id": 310907,
        "name": "Kadınhanı",
        "state": "",
        "country": "TR",
        "coord": {
            "lon": 32.211391,
            "lat": 38.239719
        }
    },
    {
        "id": 311193,
        "name": "İscehisar",
        "state": "",
        "country": "TR",
        "coord": {
            "lon": 30.75028,
            "lat": 38.861938
        }
    },
    {
        "id": 311553,
        "name": "Ilgın",
        "state": "",
        "country": "TR",
        "coord": {
            "lon": 31.913891,
            "lat": 38.279171
        }
    },
    {
        "id": 311869,
        "name": "Hozat",
        "state": "",
        "country": "TR",
        "coord": {
            "lon": 39.221272,
            "lat": 39.108292
        }
    },
    {
        "id": 312245,
        "name": "Hekimhan",
        "state": "",
        "country": "TR",
        "coord": {
            "lon": 37.931171,
            "lat": 38.817959
        }
    },
    {
        "id": 312523,
        "name": "Haruniye",
        "state": "",
        "country": "TR",
        "coord": {
            "lon": 36.454842,
            "lat": 37.242161
        }
    },
    {
        "id": 312888,
        "name": "Hakkari",
        "state": "",
        "country": "TR",
        "coord": {
            "lon": 44.166672,
            "lat": 37.583328
        }
    },
    {
        "id": 313500,
        "name": "Güneren",
        "state": "",
        "country": "TR",
        "coord": {
            "lon": 39.088612,
            "lat": 36.734169
        }
    },
    {
        "id": 313922,
        "name": "Bisbin",
        "state": "",
        "country": "TR",
        "coord": {
            "lon": 42.570278,
            "lat": 37.338612
        }
    },
    {
        "id": 314188,
        "name": "Göksun",
        "state": "",
        "country": "TR",
        "coord": {
            "lon": 36.497299,
            "lat": 38.020962
        }
    },
    {
        "id": 314648,
        "name": "Genç",
        "state": "",
        "country": "TR",
        "coord": {
            "lon": 40.560349,
            "lat": 38.75071
        }
    },
    {
        "id": 314923,
        "name": "Finike",
        "state": "",
        "country": "TR",
        "coord": {
            "lon": 30.14056,
            "lat": 36.294998
        }
    },
    {
        "id": 315201,
        "name": "Eskişehir",
        "state": "",
        "country": "TR",
        "coord": {
            "lon": 31.16667,
            "lat": 39.666672
        }
    },
    {
        "id": 315468,
        "name": "Ergani",
        "state": "",
        "country": "TR",
        "coord": {
            "lon": 39.762119,
            "lat": 38.265331
        }
    },
    {
        "id": 315720,
        "name": "Elmadağ",
        "state": "",
        "country": "TR",
        "coord": {
            "lon": 33.230831,
            "lat": 39.92083
        }
    },
    {
        "id": 315985,
        "name": "Edremit",
        "state": "",
        "country": "TR",
        "coord": {
            "lon": 27.024441,
            "lat": 39.596111
        }
    },
    {
        "id": 316411,
        "name": "Doğubayazıt",
        "state": "",
        "country": "TR",
        "coord": {
            "lon": 44.084171,
            "lat": 39.54694
        }
    },
    {
        "id": 316544,
        "name": "Divriği",
        "state": "",
        "country": "TR",
        "coord": {
            "lon": 38.113701,
            "lat": 39.370998
        }
    },
    {
        "id": 317095,
        "name": "Derbent",
        "state": "",
        "country": "TR",
        "coord": {
            "lon": 32.016392,
            "lat": 38.014221
        }
    },
    {
        "id": 317588,
        "name": "Darende",
        "state": "",
        "country": "TR",
        "coord": {
            "lon": 37.505829,
            "lat": 38.54583
        }
    },
    {
        "id": 318227,
        "name": "Çobanlar",
        "state": "",
        "country": "TR",
        "coord": {
            "lon": 30.78278,
            "lat": 38.701389
        }
    },
    {
        "id": 318567,
        "name": "Girikbedro",
        "state": "",
        "country": "TR",
        "coord": {
            "lon": 42.421108,
            "lat": 37.180279
        }
    },
    {
        "id": 318879,
        "name": "Çeltikçi",
        "state": "",
        "country": "TR",
        "coord": {
            "lon": 30.48028,
            "lat": 37.529469
        }
    },
    {
        "id": 319345,
        "name": "Çatak",
        "state": "",
        "country": "TR",
        "coord": {
            "lon": 43.065022,
            "lat": 38.00845
        }
    },
    {
        "id": 320177,
        "name": "Nikfer",
        "state": "",
        "country": "TR",
        "coord": {
            "lon": 29.13727,
            "lat": 37.405418
        }
    },
    {
        "id": 320533,
        "name": "Bucak",
        "state": "",
        "country": "TR",
        "coord": {
            "lon": 30.594999,
            "lat": 37.459171
        }
    },
    {
        "id": 320745,
        "name": "Bozalan",
        "state": "",
        "country": "TR",
        "coord": {
            "lon": 42.26482,
            "lat": 37.328941
        }
    },
    {
        "id": 321062,
        "name": "Birecik",
        "state": "",
        "country": "TR",
        "coord": {
            "lon": 37.99028,
            "lat": 37.029442
        }
    },
    {
        "id": 321337,
        "name": "Besni",
        "state": "",
        "country": "TR",
        "coord": {
            "lon": 37.861111,
            "lat": 37.69278
        }
    },
    {
        "id": 321750,
        "name": "Baykan",
        "state": "",
        "country": "TR",
        "coord": {
            "lon": 41.783329,
            "lat": 38.162659
        }
    },
    {
        "id": 322051,
        "name": "Banaz",
        "state": "",
        "country": "TR",
        "coord": {
            "lon": 29.75194,
            "lat": 38.737068
        }
    },
    {
        "id": 322391,
        "name": "Bahçe",
        "state": "",
        "country": "TR",
        "coord": {
            "lon": 36.57658,
            "lat": 37.197239
        }
    },
    {
        "id": 322817,
        "name": "İbradı",
        "state": "",
        "country": "TR",
        "coord": {
            "lon": 31.599171,
            "lat": 37.096939
        }
    },
    {
        "id": 323095,
        "name": "Askale",
        "state": "",
        "country": "TR",
        "coord": {
            "lon": 40.695202,
            "lat": 39.92054
        }
    },
    {
        "id": 323750,
        "name": "Araban",
        "state": "",
        "country": "TR",
        "coord": {
            "lon": 37.688999,
            "lat": 37.42667
        }
    },
    {
        "id": 323854,
        "name": "Ambar",
        "state": "",
        "country": "TR",
        "coord": {
            "lon": 40.52776,
            "lat": 37.853161
        }
    },
    {
        "id": 324140,
        "name": "Alâzı",
        "state": "",
        "country": "TR",
        "coord": {
            "lon": 36.116669,
            "lat": 36.349998
        }
    },
    {
        "id": 324531,
        "name": "Akpınar",
        "state": "",
        "country": "TR",
        "coord": {
            "lon": 33.96484,
            "lat": 39.45005
        }
    },
    {
        "id": 325028,
        "name": "Akarsu",
        "state": "",
        "country": "TR",
        "coord": {
            "lon": 41.06068,
            "lat": 37.235489
        }
    },
    {
        "id": 325303,
        "name": "Afyonkarahisar",
        "state": "",
        "country": "TR",
        "coord": {
            "lon": 30.543329,
            "lat": 38.756672
        }
    },
    {
        "id": 325449,
        "name": "Acıgöl",
        "state": "",
        "country": "TR",
        "coord": {
            "lon": 34.509171,
            "lat": 38.550282
        }
    },
    {
        "id": 327651,
        "name": "Teseney",
        "state": "",
        "country": "ER",
        "coord": {
            "lon": 36.657501,
            "lat": 15.11
        }
    },
    {
        "id": 330120,
        "name": "Nejo",
        "state": "",
        "country": "ET",
        "coord": {
            "lon": 35.5,
            "lat": 9.5
        }
    },
    {
        "id": 331038,
        "name": "Mendī",
        "state": "",
        "country": "ET",
        "coord": {
            "lon": 35.099998,
            "lat": 9.8
        }
    },
    {
        "id": 332746,
        "name": "Korem",
        "state": "",
        "country": "ET",
        "coord": {
            "lon": 39.522781,
            "lat": 12.50583
        }
    },
    {
        "id": 333772,
        "name": "Jimma",
        "state": "",
        "country": "ET",
        "coord": {
            "lon": 36.833328,
            "lat": 7.66667
        }
    },
    {
        "id": 335733,
        "name": "Guder",
        "state": "",
        "country": "ET",
        "coord": {
            "lon": 37.76667,
            "lat": 8.96667
        }
    },
    {
        "id": 336745,
        "name": "Gewanē",
        "state": "",
        "country": "ET",
        "coord": {
            "lon": 40.645279,
            "lat": 10.16639
        }
    },
    {
        "id": 337996,
        "name": "Federal Democratic Republic of Ethiopia",
        "state": "",
        "country": "ET",
        "coord": {
            "lon": 38.0,
            "lat": 8.0
        }
    },
    {
        "id": 339537,
        "name": "Dek’emhāre",
        "state": "",
        "country": "ER",
        "coord": {
            "lon": 39.047501,
            "lat": 15.07
        }
    },
    {
        "id": 339823,
        "name": "Debark’",
        "state": "",
        "country": "ET",
        "coord": {
            "lon": 37.89806,
            "lat": 13.15611
        }
    },
    {
        "id": 342559,
        "name": "Bedēsa",
        "state": "",
        "country": "ET",
        "coord": {
            "lon": 40.783329,
            "lat": 8.9
        }
    },
    {
        "id": 343300,
        "name": "Asmara",
        "state": "",
        "country": "ER",
        "coord": {
            "lon": 38.933331,
            "lat": 15.33333
        }
    },
    {
        "id": 344426,
        "name": "Ak’ordat",
        "state": "",
        "country": "ER",
        "coord": {
            "lon": 37.886669,
            "lat": 15.54861
        }
    },
    {
        "id": 345149,
        "name": "Ādīgrat",
        "state": "",
        "country": "ET",
        "coord": {
            "lon": 39.462002,
            "lat": 14.277
        }
    },
    {
        "id": 347634,
        "name": "Ţahţā",
        "state": "",
        "country": "EG",
        "coord": {
            "lon": 31.50214,
            "lat": 26.7693
        }
    },
    {
        "id": 349401,
        "name": "Muḩāfaz̧at Shamāl Sīnā’",
        "state": "",
        "country": "EG",
        "coord": {
            "lon": 33.700001,
            "lat": 30.5
        }
    },
    {
        "id": 350550,
        "name": "Qinā",
        "state": "",
        "country": "EG",
        "coord": {
            "lon": 32.726711,
            "lat": 26.164181
        }
    },
    {
        "id": 352603,
        "name": "Muḩāfaz̧at Maţrūḩ",
        "state": "",
        "country": "EG",
        "coord": {
            "lon": 27.5,
            "lat": 29.700001
        }
    },
    {
        "id": 353828,
        "name": "Kawm Ḩamādah",
        "state": "",
        "country": "EG",
        "coord": {
            "lon": 30.69733,
            "lat": 30.76096
        }
    },
    {
        "id": 355026,
        "name": "Jirjā",
        "state": "",
        "country": "EG",
        "coord": {
            "lon": 31.891609,
            "lat": 26.338261
        }
    },
    {
        "id": 356806,
        "name": "Fuwwah",
        "state": "",
        "country": "EG",
        "coord": {
            "lon": 30.55018,
            "lat": 31.202909
        }
    },
    {
        "id": 358095,
        "name": "Diyarb Najm",
        "state": "",
        "country": "EG",
        "coord": {
            "lon": 31.439251,
            "lat": 30.754219
        }
    },
    {
        "id": 358617,
        "name": "Muḩāfaz̧at Būr Sa‘īd",
        "state": "",
        "country": "EG",
        "coord": {
            "lon": 32.299999,
            "lat": 31.1
        }
    },
    {
        "id": 359280,
        "name": "Banhā",
        "state": "",
        "country": "EG",
        "coord": {
            "lon": 31.178579,
            "lat": 30.459061
        }
    },
    {
        "id": 359792,
        "name": "Aswan",
        "state": "",
        "country": "EG",
        "coord": {
            "lon": 32.90704,
            "lat": 24.09343
        }
    },
    {
        "id": 360483,
        "name": "Muḩāfaz̧at al Wādī al Jadīd",
        "state": "",
        "country": "EG",
        "coord": {
            "lon": 28.9,
            "lat": 24.799999
        }
    },
    {
        "id": 360686,
        "name": "Al Minyā",
        "state": "",
        "country": "EG",
        "coord": {
            "lon": 30.750299,
            "lat": 28.10988
        }
    },
    {
        "id": 360995,
        "name": "Giza",
        "state": "",
        "country": "EG",
        "coord": {
            "lon": 31.21093,
            "lat": 30.00808
        }
    },
    {
        "id": 361179,
        "name": "Al Ḩawāmidīyah",
        "state": "",
        "country": "EG",
        "coord": {
            "lon": 31.25,
            "lat": 29.9
        }
    },
    {
        "id": 361457,
        "name": "Al Bājūr",
        "state": "",
        "country": "EG",
        "coord": {
            "lon": 31.03681,
            "lat": 30.43026
        }
    },
    {
        "id": 362004,
        "name": "Abū Tīj",
        "state": "",
        "country": "EG",
        "coord": {
            "lon": 31.31897,
            "lat": 27.044109
        }
    },
    {
        "id": 363417,
        "name": "Dongola",
        "state": "",
        "country": "SD",
        "coord": {
            "lon": 30.48333,
            "lat": 19.16667
        }
    },
    {
        "id": 364367,
        "name": "Aweil",
        "state": "",
        "country": "SS",
        "coord": {
            "lon": 27.40019,
            "lat": 8.76816
        }
    },
    {
        "id": 366426,
        "name": "Tandaltī",
        "state": "",
        "country": "SD",
        "coord": {
            "lon": 31.866671,
            "lat": 13.01667
        }
    },
    {
        "id": 368246,
        "name": "Raja",
        "state": "",
        "country": "SS",
        "coord": {
            "lon": 25.677999,
            "lat": 8.45955
        }
    },
    {
        "id": 370737,
        "name": "Malakal",
        "state": "",
        "country": "SS",
        "coord": {
            "lon": 31.66048,
            "lat": 9.53342
        }
    },
    {
        "id": 372386,
        "name": "Kināna",
        "state": "",
        "country": "SD",
        "coord": {
            "lon": 33.1712,
            "lat": 14.0361
        }
    },
    {
        "id": 375192,
        "name": "Jalqani",
        "state": "",
        "country": "SD",
        "coord": {
            "lon": 34.218601,
            "lat": 12.4486
        }
    },
    {
        "id": 377724,
        "name": "Bārah",
        "state": "",
        "country": "SD",
        "coord": {
            "lon": 30.366671,
            "lat": 13.7
        }
    },
    {
        "id": 378543,
        "name": "Argo",
        "state": "",
        "country": "SD",
        "coord": {
            "lon": 30.41667,
            "lat": 19.51667
        }
    },
    {
        "id": 379198,
        "name": "Al Lagowa",
        "state": "",
        "country": "SD",
        "coord": {
            "lon": 29.133329,
            "lat": 11.4
        }
    },
    {
        "id": 379416,
        "name": "Al Ḩawātah",
        "state": "",
        "country": "SD",
        "coord": {
            "lon": 34.633331,
            "lat": 13.41667
        }
    },
    {
        "id": 380308,
        "name": "Abyei",
        "state": "",
        "country": "SD",
        "coord": {
            "lon": 28.434931,
            "lat": 9.59525
        }
    },
    {
        "id": 384597,
        "name": "Charbūkh",
        "state": "",
        "country": "IQ",
        "coord": {
            "lon": 45.712223,
            "lat": 35.315834
        }
    },
    {
        "id": 387958,
        "name": "Salwá",
        "state": "",
        "country": "KW",
        "coord": {
            "lon": 48.078609,
            "lat": 29.29583
        }
    },
    {
        "id": 389467,
        "name": "Baladīyat Umm Şalāl",
        "state": "",
        "country": "QA",
        "coord": {
            "lon": 51.333328,
            "lat": 25.466669
        }
    },
    {
        "id": 391749,
        "name": "‘Uşayfirāt",
        "state": "",
        "country": "SA",
        "coord": {
            "lon": 49.432049,
            "lat": 26.10927
        }
    },
    {
        "id": 396550,
        "name": "Tumayr",
        "state": "",
        "country": "SA",
        "coord": {
            "lon": 45.867962,
            "lat": 25.70393
        }
    },
    {
        "id": 400743,
        "name": "Western Province",
        "state": "",
        "country": "KE",
        "coord": {
            "lon": 34.583328,
            "lat": 0.5
        }
    },
    {
        "id": 402074,
        "name": "Ar Rujum",
        "state": "",
        "country": "YE",
        "coord": {
            "lon": 43.632259,
            "lat": 15.45776
        }
    },
    {
        "id": 403754,
        "name": "Matnah",
        "state": "",
        "country": "YE",
        "coord": {
            "lon": 44.024719,
            "lat": 15.25333
        }
    },
    {
        "id": 406845,
        "name": "Al Khirab",
        "state": "",
        "country": "YE",
        "coord": {
            "lon": 44.290482,
            "lat": 16.554399
        }
    },
    {
        "id": 407096,
        "name": "Habur",
        "state": "",
        "country": "YE",
        "coord": {
            "lon": 43.706989,
            "lat": 16.05097
        }
    },
    {
        "id": 408647,
        "name": "Lakes",
        "state": "",
        "country": "SS",
        "coord": {
            "lon": 30.0,
            "lat": 6.75
        }
    },
    {
        "id": 408660,
        "name": "South Darfur",
        "state": "",
        "country": "SD",
        "coord": {
            "lon": 25.25,
            "lat": 11.15
        }
    },
    {
        "id": 408670,
        "name": "Warrap State",
        "state": "",
        "country": "SS",
        "coord": {
            "lon": 28.85,
            "lat": 8.0
        }
    },
    {
        "id": 408883,
        "name": "Zakhim",
        "state": "",
        "country": "YE",
        "coord": {
            "lon": 44.68504,
            "lat": 14.29496
        }
    },
    {
        "id": 409419,
        "name": "Shusha",
        "state": "",
        "country": "AZ",
        "coord": {
            "lon": 46.75,
            "lat": 39.75
        }
    },
    {
        "id": 410914,
        "name": "Kushar",
        "state": "",
        "country": "YE",
        "coord": {
            "lon": 43.421021,
            "lat": 16.15523
        }
    },
    {
        "id": 411738,
        "name": "Ash Sharqiyah South",
        "state": "",
        "country": "OM",
        "coord": {
            "lon": 58.549999,
            "lat": 22.0
        }
    },
    {
        "id": 412516,
        "name": "Al Ḩamrānīyah",
        "state": "",
        "country": "AE",
        "coord": {
            "lon": 55.90028,
            "lat": 25.611389
        }
    },
    {
        "id": 415505,
        "name": "‘Izbat Nādī aş Şayd",
        "state": "",
        "country": "EG",
        "coord": {
            "lon": 29.936859,
            "lat": 31.17889
        }
    },
    {
        "id": 418723,
        "name": "Kelīshād va Sūdarjān",
        "state": "",
        "country": "IR",
        "coord": {
            "lon": 51.526299,
            "lat": 32.55603
        }
    },
    {
        "id": 423328,
        "name": "Bururi",
        "state": "",
        "country": "BI",
        "coord": {
            "lon": 29.62438,
            "lat": -3.94877
        }
    },
    {
        "id": 426699,
        "name": "Ruyigi Province",
        "state": "",
        "country": "BI",
        "coord": {
            "lon": 30.316669,
            "lat": -3.45
        }
    },
    {
        "id": 430567,
        "name": "Ngozi Province",
        "state": "",
        "country": "BI",
        "coord": {
            "lon": 29.924999,
            "lat": -2.875
        }
    },
    {
        "id": 433635,
        "name": "Rutana",
        "state": "",
        "country": "BI",
        "coord": {
            "lon": 29.992001,
            "lat": -3.9279
        }
    },
    {
        "id": 436443,
        "name": "Sevimli",
        "state": "",
        "country": "TR",
        "coord": {
            "lon": 38.914719,
            "lat": 36.787781
        }
    },
    {
        "id": 438116,
        "name": "Gümüşgöze",
        "state": "",
        "country": "TR",
        "coord": {
            "lon": 36.138699,
            "lat": 36.154869
        }
    },
    {
        "id": 438236,
        "name": "Anayazı",
        "state": "",
        "country": "TR",
        "coord": {
            "lon": 36.199169,
            "lat": 36.314442
        }
    },
    {
        "id": 438967,
        "name": "Doruklu",
        "state": "",
        "country": "TR",
        "coord": {
            "lon": 42.335178,
            "lat": 37.255501
        }
    },
    {
        "id": 441867,
        "name": "Telharzem",
        "state": "",
        "country": "TR",
        "coord": {
            "lon": 40.630562,
            "lat": 37.2425
        }
    },
    {
        "id": 443188,
        "name": "Kırıkkale",
        "state": "",
        "country": "TR",
        "coord": {
            "lon": 33.75,
            "lat": 39.833328
        }
    },
    {
        "id": 443336,
        "name": "Kabale District",
        "state": "",
        "country": "UG",
        "coord": {
            "lon": 29.98588,
            "lat": -1.20774
        }
    },
    {
        "id": 443355,
        "name": "Mbarara District",
        "state": "",
        "country": "UG",
        "coord": {
            "lon": 30.6,
            "lat": -0.5
        }
    },
    {
        "id": 443460,
        "name": "Potokáki",
        "state": "",
        "country": "GR",
        "coord": {
            "lon": 26.91889,
            "lat": 37.686668
        }
    },
    {
        "id": 444179,
        "name": "Afar Region",
        "state": "",
        "country": "ET",
        "coord": {
            "lon": 41.5,
            "lat": 12.0
        }
    },
    {
        "id": 444191,
        "name": "Mohafazat Nabatîyé",
        "state": "",
        "country": "LB",
        "coord": {
            "lon": 35.5,
            "lat": 33.25
        }
    },
    {
        "id": 447273,
        "name": "Dalaman",
        "state": "",
        "country": "TR",
        "coord": {
            "lon": 28.802799,
            "lat": 36.765911
        }
    },
    {
        "id": 448227,
        "name": "Pader",
        "state": "",
        "country": "UG",
        "coord": {
            "lon": 33.216671,
            "lat": 3.05
        }
    },
    {
        "id": 448600,
        "name": "Al Khālidīyah",
        "state": "",
        "country": "SA",
        "coord": {
            "lon": 46.759441,
            "lat": 24.622219
        }
    },
    {
        "id": 453080,
        "name": "Akademicheskiy",
        "state": "",
        "country": "RU",
        "coord": {
            "lon": 34.31638,
            "lat": 57.711102
        }
    },
    {
        "id": 454178,
        "name": "Viļāni",
        "state": "",
        "country": "LV",
        "coord": {
            "lon": 26.92449,
            "lat": 56.552528
        }
    },
    {
        "id": 454537,
        "name": "Vangaži",
        "state": "",
        "country": "LV",
        "coord": {
            "lon": 24.548611,
            "lat": 57.093609
        }
    },
    {
        "id": 454810,
        "name": "Torņakalns",
        "state": "",
        "country": "LV",
        "coord": {
            "lon": 24.09111,
            "lat": 56.927776
        }
    },
    {
        "id": 455499,
        "name": "Skulte",
        "state": "",
        "country": "LV",
        "coord": {
            "lon": 23.953329,
            "lat": 56.919441
        }
    },
    {
        "id": 455937,
        "name": "Sabile",
        "state": "",
        "country": "LV",
        "coord": {
            "lon": 22.572611,
            "lat": 57.045769
        }
    },
    {
        "id": 456506,
        "name": "Priekule",
        "state": "",
        "country": "LV",
        "coord": {
            "lon": 21.58968,
            "lat": 56.446789
        }
    },
    {
        "id": 457052,
        "name": "Olaine",
        "state": "",
        "country": "LV",
        "coord": {
            "lon": 23.938061,
            "lat": 56.785278
        }
    },
    {
        "id": 457742,
        "name": "Ļurbava",
        "state": "",
        "country": "LV",
        "coord": {
            "lon": 27.66486,
            "lat": 56.781792
        }
    },
    {
        "id": 457954,
        "name": "Liepāja",
        "state": "",
        "country": "LV",
        "coord": {
            "lon": 21.01667,
            "lat": 56.51667
        }
    },
    {
        "id": 458682,
        "name": "Kolka",
        "state": "",
        "country": "LV",
        "coord": {
            "lon": 22.58333,
            "lat": 57.75
        }
    },
    {
        "id": 459201,
        "name": "Jūrmala",
        "state": "",
        "country": "LV",
        "coord": {
            "lon": 23.77038,
            "lat": 56.967999
        }
    },
    {
        "id": 459411,
        "name": "Jaundubulti",
        "state": "",
        "country": "LV",
        "coord": {
            "lon": 23.75,
            "lat": 56.964722
        }
    },